,City,Country,Date,Lat,Lng,Max Temp,Humidity,Cloudiness,Wind Speed
0,Kushiro,JP,2021-07-27 04:04:10,42.975,144.3747,291.92,97,100,4.76
1,Bulawayo,ZW,2021-07-27 04:02:46,-20.15,28.5833,278.67,74,0,4.47
2,Kodiak,US,2021-07-27 04:03:17,57.79,-152.4072,287.43,76,44,2.31
3,Hobart,AU,2021-07-27 04:01:58,-42.8794,147.3294,290.07,54,75,1.79
4,New Norfolk,AU,2021-07-27 04:04:13,-42.7826,147.0587,289.87,55,69,2.68
5,Lensk,RU,2021-07-27 04:04:14,60.7253,114.9278,305.56,28,4,2.93
6,Bethel,US,2021-07-27 04:03:18,41.3712,-73.414,296.28,87,1,1.48
7,Pechenga,RU,2021-07-27 04:04:15,69.5259,31.1703,282.63,78,20,1.46
8,Rikitea,PF,2021-07-27 04:03:07,-23.1203,-134.9692,296.99,79,99,8.33
9,Fatwa,IN,2021-07-27 04:04:17,25.5167,85.3167,299.2,63,100,1.92
10,Punta Arenas,CL,2021-07-27 04:02:57,-53.15,-70.9167,278.21,86,96,3.6
11,Tura,IN,2021-07-27 04:04:18,25.5198,90.2201,301.1,86,100,2.65
12,Bud,US,2021-07-27 04:04:19,39.447,-86.1758,297.06,85,0,3.01
13,Saint-Philippe,RE,2021-07-27 04:04:19,-21.3585,55.7679,291.92,83,87,4.42
14,Baghdad,IQ,2021-07-27 04:01:02,33.3406,44.4009,312.89,14,0,4.96
15,Wagga Wagga,AU,2021-07-27 04:04:21,-35.1167,147.3667,290.15,65,68,5.88
16,Repnoye,RU,2021-07-27 04:04:22,51.5921,43.1861,293.51,47,7,1.43
17,Rovaniemi,FI,2021-07-27 04:04:23,66.5,25.7167,287.82,82,0,2.57
18,Vostok,RU,2021-07-27 04:04:24,46.4856,135.8833,304.54,48,99,2.33
19,Mezen,RU,2021-07-27 04:04:25,65.8522,44.24,281.36,81,100,6.01
20,Vaini,TO,2021-07-27 04:03:24,-21.2,-175.2,296.12,74,97,6.56
21,Mahebourg,MU,2021-07-27 04:04:27,-20.4081,57.7,293.85,79,75,6.76
22,Bathsheba,BB,2021-07-27 04:04:28,13.2167,-59.5167,299.49,83,40,4.12
23,Mar Del Plata,AR,2021-07-27 04:01:22,-38.0023,-57.5575,276.53,45,30,4.92
24,Naze,JP,2021-07-27 04:03:22,28.3667,129.4833,299.1,82,100,5.82
25,Jamestown,US,2021-07-27 04:00:44,42.097,-79.2353,293.44,81,0,0.45
26,Banda Aceh,ID,2021-07-27 04:04:33,5.5577,95.3222,303.65,66,70,5.79
27,Rio Grande,BR,2021-07-27 04:03:12,-32.035,-52.0986,283.12,84,100,7.87
28,Coquimbo,CL,2021-07-27 04:03:34,-29.9533,-71.3436,285.07,82,0,2.49
29,Port Alfred,ZA,2021-07-27 04:04:35,-33.5906,26.891,290.27,31,39,6.1
30,Bredasdorp,ZA,2021-07-27 04:04:36,-34.5322,20.0403,282.93,63,4,2.16
31,Saint Anthony,US,2021-07-27 04:04:37,45.0205,-93.218,301.32,73,1,0.45
32,Salalah,OM,2021-07-27 04:04:38,17.0151,54.0924,299.2,89,75,2.57
33,Udachnyy,RU,2021-07-27 04:04:06,66.4167,112.4,303.52,32,61,2.34
34,Codrington,AU,2021-07-27 04:04:39,-38.2667,141.9667,287.26,61,100,10.71
35,Almaznyy,RU,2021-07-27 04:04:40,48.0448,40.045,295.23,48,56,3.82
36,Albany,US,2021-07-27 04:00:43,42.6001,-73.9662,293.72,84,0,1.72
37,Avarua,CK,2021-07-27 04:03:35,-21.2078,-159.775,298.18,78,75,2.06
38,Turukhansk,RU,2021-07-27 04:04:42,65.8167,87.9833,300.99,44,54,8.78
39,Mataura,NZ,2021-07-27 04:04:42,-46.1927,168.8643,283.97,74,21,1.55
40,Victoria,HK,2021-07-27 04:04:43,22.2855,114.1577,308.14,75,99,4.92
41,Atuona,PF,2021-07-27 04:04:44,-9.8,-139.0333,298.76,72,46,10.23
42,Mount Isa,AU,2021-07-27 04:04:45,-20.7333,139.5,302.02,17,64,5.14
43,Yulara,AU,2021-07-27 04:04:46,-25.2406,130.9889,301.06,16,14,10.29
44,Longyearbyen,SJ,2021-07-27 04:01:11,78.2186,15.6401,279.12,89,100,0.81
45,Hermanus,ZA,2021-07-27 04:04:47,-34.4187,19.2345,285.32,68,1,5.0
46,Coahuayana,MX,2021-07-27 04:04:48,18.7333,-103.6833,299.35,90,68,0.61
47,Kajaani,FI,2021-07-27 04:04:49,64.2273,27.7285,289.18,82,0,2.06
48,Sioux Lookout,CA,2021-07-27 04:04:50,50.1001,-91.917,286.29,88,72,0.41
49,Kruisfontein,ZA,2021-07-27 04:04:51,-34.0033,24.7314,293.64,26,8,9.47
50,Hilo,US,2021-07-27 04:00:31,19.7297,-155.09,299.0,86,90,5.14
51,Puerto El Triunfo,SV,2021-07-27 04:04:39,13.2833,-88.55,302.66,88,12,2.19
52,Talnakh,RU,2021-07-27 04:04:53,69.4865,88.3972,302.52,40,76,6.75
53,Sudislavl,RU,2021-07-27 04:04:53,57.8817,41.7083,290.48,73,8,1.92
54,Hirna,ET,2021-07-27 04:04:54,9.2167,41.1,287.96,89,100,3.2
55,Jawar,IN,2021-07-27 04:04:55,23.0,76.5,295.97,94,100,5.62
56,Santa Isabel Do Rio Negro,BR,2021-07-27 04:04:56,-0.4139,-65.0192,296.43,89,100,1.15
57,Tasiilaq,GL,2021-07-27 04:04:57,65.6145,-37.6368,279.24,89,28,2.3
58,Rio Cuarto,AR,2021-07-27 04:04:57,-33.1307,-64.3499,271.95,40,4,3.93
59,Arona,ES,2021-07-27 04:04:58,28.0996,-16.681,292.5,79,75,6.17
60,Qasigiannguit,GL,2021-07-27 04:04:59,68.8193,-51.1922,289.29,82,96,3.0
61,Margate,GB,2021-07-27 04:05:00,51.3813,1.3862,290.95,94,100,0.89
62,Dikson,RU,2021-07-27 04:05:00,73.5069,80.5464,277.02,99,100,6.0
63,Klaksvik,FO,2021-07-27 04:04:08,62.2266,-6.589,283.66,99,100,4.15
64,Norman Wells,CA,2021-07-27 04:05:02,65.282,-126.8329,289.66,62,98,0.82
65,Barrow,US,2021-07-27 04:03:21,71.2906,-156.7887,281.16,93,90,4.12
66,Ushuaia,AR,2021-07-27 04:05:03,-54.8,-68.3,273.96,86,75,1.54
67,Carutapera,BR,2021-07-27 04:05:04,-1.195,-46.02,296.57,92,20,1.24
68,Pisco,PE,2021-07-27 04:04:00,-13.7,-76.2167,290.38,86,0,0.17
69,Ilulissat,GL,2021-07-27 04:05:05,69.2167,-51.1,289.16,51,75,5.14
70,Kaitangata,NZ,2021-07-27 04:04:18,-46.2817,169.8464,285.89,48,7,3.18
71,Itarema,BR,2021-07-27 04:05:07,-2.9248,-39.9167,298.43,80,22,6.03
72,Hermon,US,2021-07-27 04:01:41,44.8101,-68.9134,293.33,90,13,1.74
73,Thompson,CA,2021-07-27 03:56:42,55.7435,-97.8558,287.24,72,20,0.0
74,Esperance,AU,2021-07-27 04:03:37,-33.8667,121.9,288.06,70,62,16.85
75,Yellowknife,CA,2021-07-27 03:55:16,62.456,-114.3525,287.77,82,75,1.34
76,Kumo,NG,2021-07-27 04:04:04,10.0447,11.2122,294.61,92,100,3.85
77,Kisanga,TZ,2021-07-27 04:05:11,-7.4362,37.7034,290.82,61,5,2.11
78,Provideniya,RU,2021-07-27 04:03:00,64.3833,-173.3,283.21,81,90,4.0
79,Ilhabela,BR,2021-07-27 04:02:25,-23.7781,-45.3581,293.68,49,0,2.96
80,Nuuk,GL,2021-07-27 04:05:13,64.1835,-51.7216,287.49,67,65,1.54
81,Puerto Ayora,EC,2021-07-27 04:05:13,-0.7393,-90.3518,295.12,86,56,3.13
82,Pevek,RU,2021-07-27 04:03:00,69.7008,170.3133,275.64,88,75,8.6
83,Kavieng,PG,2021-07-27 04:05:15,-2.5744,150.7967,302.22,67,37,2.03
84,Bandarbeyla,SO,2021-07-27 04:05:16,9.4942,50.8122,300.18,54,19,11.18
85,Butaritari,KI,2021-07-27 04:05:16,3.0707,172.7902,300.94,74,35,1.88
86,Faanui,PF,2021-07-27 04:05:17,-16.4833,-151.75,299.34,72,65,4.14
87,Ponta Do Sol,PT,2021-07-27 04:05:18,32.6667,-17.1,295.5,74,2,2.15
88,Nowa Deba,PL,2021-07-27 04:05:19,50.4297,21.7508,293.93,88,32,2.22
89,Presidente Epitacio,BR,2021-07-27 04:05:19,-21.7633,-52.1156,292.72,37,0,2.43
90,Sokoto,NG,2021-07-27 04:05:20,13.0609,5.239,297.05,85,100,2.08
91,Arlit,NE,2021-07-27 04:05:21,18.7369,7.3853,305.2,42,94,8.51
92,Fergus Falls,US,2021-07-27 04:02:06,46.283,-96.0776,298.85,83,1,2.57
93,Olga,RU,2021-07-27 04:05:22,43.7444,135.2892,301.1,69,32,2.97
94,Salekhard,RU,2021-07-27 04:05:23,66.53,66.6019,285.56,75,57,4.79
95,Hambantota,LK,2021-07-27 04:05:24,6.1241,81.1185,302.34,79,99,6.69
96,Hithadhoo,MV,2021-07-27 04:05:25,-0.6,73.0833,300.51,74,100,2.62
97,Arraial Do Cabo,BR,2021-07-27 04:03:14,-22.9661,-42.0278,294.05,87,0,10.27
98,Acarau,BR,2021-07-27 04:05:26,-2.8856,-40.12,298.38,81,27,6.2
99,Marawi,PH,2021-07-27 04:05:27,7.9986,124.2928,301.8,56,92,3.96
100,Qaanaaq,GL,2021-07-27 04:05:28,77.484,-69.3632,278.69,91,100,4.16
101,Udgir,IN,2021-07-27 04:05:28,18.3833,77.1167,298.08,72,100,8.39
102,Anadyr,RU,2021-07-27 04:04:03,64.75,177.4833,285.43,93,75,4.92
103,Busselton,AU,2021-07-27 04:05:30,-33.65,115.3333,287.62,56,95,10.59
104,Bluff,NZ,2021-07-27 04:05:31,-46.6,168.3333,284.15,70,20,8.65
105,Myitkyina,MM,2021-07-27 04:05:32,25.3833,97.4,302.6,77,91,1.0
106,Kahului,US,2021-07-27 04:05:33,20.8947,-156.47,299.8,83,40,9.26
107,Sampit,ID,2021-07-27 04:05:35,-2.5333,112.95,306.08,50,50,1.39
108,La Tuque,CA,2021-07-27 04:05:35,47.4334,-72.7824,286.39,94,98,2.33
109,Sao Joao Da Barra,BR,2021-07-27 04:04:32,-21.6403,-41.0511,293.23,87,0,5.47
110,Castro,BR,2021-07-27 04:01:38,-24.7911,-50.0119,287.29,62,46,2.28
111,Ranong,TH,2021-07-27 04:05:37,9.9658,98.6348,301.68,81,99,6.39
112,Mahdalynivka,UA,2021-07-27 04:05:38,48.921,34.9156,292.46,60,0,2.85
113,Airai,TL,2021-07-27 04:03:53,-8.9266,125.4092,298.3,29,68,2.19
114,Chimoio,MZ,2021-07-27 04:05:39,-19.1164,33.4833,283.07,81,20,2.06
115,Maple Creek,CA,2021-07-27 04:05:40,49.9168,-109.4848,297.0,33,77,3.5
116,Sobolevo,RU,2021-07-27 04:05:41,54.4299,31.8996,291.75,71,20,2.23
117,Pangai,TO,2021-07-27 04:05:43,-19.8,-174.35,297.59,74,95,8.24
118,De Aar,ZA,2021-07-27 04:05:44,-30.6497,24.0123,276.9,55,57,3.52
119,Munai,PH,2021-07-27 04:05:44,7.9758,124.0636,302.06,59,90,3.96
120,Dormidontovka,RU,2021-07-27 04:05:45,47.7702,134.9076,309.94,33,35,3.04
121,Georgetown,MY,2021-07-27 03:54:54,5.4112,100.3354,304.2,77,40,0.45
122,Nedjo,ET,2021-07-27 04:05:46,9.5046,35.5019,285.78,96,95,0.77
123,Verkhnyaya Maksakovka,RU,2021-07-27 04:05:47,61.635,50.9674,282.16,81,90,4.0
124,Touros,BR,2021-07-27 04:05:29,-5.1989,-35.4608,295.65,90,4,3.95
125,Bedford,GB,2021-07-27 04:05:49,52.1346,-0.4663,291.45,90,100,3.81
126,Lompoc,US,2021-07-27 04:01:58,34.6391,-120.4579,294.23,86,90,0.0
127,Kutum,SD,2021-07-27 04:04:35,14.2,24.6667,294.02,73,100,0.79
128,Lagos,NG,2021-07-27 04:02:48,6.5833,3.75,297.01,76,97,3.12
129,Geraldton,AU,2021-07-27 04:05:15,-28.7667,114.6,292.38,63,90,10.8
130,Boundiali,CI,2021-07-27 04:05:52,9.5217,-6.4869,293.65,96,57,2.25
131,Havoysund,NO,2021-07-27 04:05:52,70.9963,24.6622,286.64,75,28,2.25
132,Ribeira Grande,PT,2021-07-27 04:05:53,38.5167,-28.7,294.81,89,96,4.0
133,Ponta Delgada,PT,2021-07-27 04:03:32,37.7333,-25.6667,294.55,94,75,3.6
134,Saldanha,ZA,2021-07-27 04:03:53,-33.0117,17.9442,286.11,90,0,4.28
135,Tautira,PF,2021-07-27 04:05:55,-17.7333,-149.15,299.82,75,23,3.36
136,Khandyga,RU,2021-07-27 04:05:56,62.6667,135.6,299.92,34,52,3.13
137,Valparaiso,CL,2021-07-27 04:05:57,-33.0393,-71.6273,285.95,74,0,2.57
138,Trapani,IT,2021-07-27 04:05:58,37.8333,12.6667,301.25,75,0,3.27
139,Plouzane,FR,2021-07-27 04:05:59,48.3833,-4.6167,289.33,94,90,4.12
140,Ahuimanu,US,2021-07-27 04:06:00,21.4447,-157.8378,300.99,69,40,5.14
141,Cape Town,ZA,2021-07-27 04:03:08,-33.9258,18.4232,285.52,91,20,5.14
142,Maturin,VE,2021-07-27 04:06:01,9.75,-63.1767,296.47,98,94,1.9
143,Cherskiy,RU,2021-07-27 04:06:02,68.75,161.3,283.86,52,12,10.34
144,Tessalit,ML,2021-07-27 04:06:02,20.1986,1.0114,305.75,35,99,2.29
145,Mayo,US,2021-07-27 04:06:04,38.8876,-76.5119,298.83,89,45,1.34
146,Maniitsoq,GL,2021-07-27 04:06:05,65.4167,-52.9,283.65,79,100,5.98
147,Tsumeb,NA,2021-07-27 04:06:06,-19.2333,17.7167,282.48,47,0,4.76
148,Redwater,US,2021-07-27 04:06:07,33.3582,-94.2544,302.69,75,26,1.46
149,Moshupa,BW,2021-07-27 04:03:17,-24.7782,25.4155,277.15,66,0,2.19
150,Tashtagol,RU,2021-07-27 04:06:08,52.7657,87.8894,289.35,98,100,0.93
151,Kibiti,TZ,2021-07-27 04:06:09,-7.7218,38.9375,289.6,83,25,1.51
152,Tuktoyaktuk,CA,2021-07-27 04:03:25,69.4541,-133.0374,281.22,74,98,4.52
153,Nanga Eboko,CM,2021-07-27 04:06:10,4.6833,12.3667,292.95,87,96,2.38
154,Brae,GB,2021-07-27 04:06:11,60.3964,-1.353,286.1,98,100,4.31
155,Assiniboia,CA,2021-07-27 04:06:12,49.6334,-105.9845,295.68,40,36,3.1
156,Flinders,AU,2021-07-27 04:04:15,-34.5833,150.8552,294.85,43,2,3.13
157,Korcula,HR,2021-07-27 04:06:13,42.9622,17.1369,298.2,64,80,4.25
158,Meulaboh,ID,2021-07-27 04:04:19,4.1363,96.1285,302.57,67,69,1.41
159,Farmington,US,2021-07-27 04:06:15,36.7281,-108.2187,294.53,74,1,2.57
160,Sembe,CG,2021-07-27 04:06:04,1.6481,14.5806,294.66,89,93,2.44
161,Monrovia,LR,2021-07-27 04:06:16,6.3005,-10.7969,297.42,86,99,5.69
162,Mecca,SA,2021-07-27 04:06:17,21.4267,39.8261,302.46,46,84,2.59
163,Imbituba,BR,2021-07-27 04:02:25,-28.24,-48.6703,291.94,89,100,3.29
164,Tevaitoa,PF,2021-07-27 04:06:18,-16.7833,-151.5,298.94,75,56,4.1
165,Carnarvon,AU,2021-07-27 04:06:19,-24.8667,113.6333,296.19,56,15,5.14
166,Zhigansk,RU,2021-07-27 04:04:12,66.7697,123.3711,290.66,51,4,7.81
167,Ambajogai,IN,2021-07-27 04:06:20,18.7333,76.3833,297.85,72,100,8.3
168,Upernavik,GL,2021-07-27 04:03:17,72.7868,-56.1549,281.66,87,100,5.72
169,Port Elizabeth,ZA,2021-07-27 04:06:22,-33.918,25.5701,294.87,29,0,3.6
170,Ampanihy,MG,2021-07-27 04:06:22,-24.7,44.75,288.53,73,13,5.42
171,Benghazi,LY,2021-07-27 04:06:23,32.1167,20.0667,298.16,62,0,6.05
172,Terrace,CA,2021-07-27 04:06:24,54.5163,-128.6035,287.83,96,95,0.44
173,San Andres,CO,2021-07-27 04:06:25,12.5847,-81.7006,301.16,83,40,2.06
174,Sao Felix Do Xingu,BR,2021-07-27 04:06:25,-6.6447,-51.995,294.78,57,33,0.56
175,Purkersdorf,AT,2021-07-27 04:06:26,48.1951,16.1626,293.17,81,79,2.93
176,Fairbanks,US,2021-07-27 04:04:21,64.8378,-147.7164,295.15,50,90,1.34
177,Port Blair,IN,2021-07-27 04:06:28,11.6667,92.75,302.54,78,77,9.27
178,San Patricio,US,2021-07-27 04:05:35,28.017,-97.5169,301.42,74,3,3.67
179,Praia,CV,2021-07-27 04:03:18,14.9215,-23.5087,297.45,83,20,2.57
180,Vardo,NO,2021-07-27 04:04:39,70.3705,31.1107,281.26,85,52,1.39
181,Chuy,UY,2021-07-27 04:04:41,-33.6971,-53.4616,280.16,87,9,3.17
182,Kapaa,US,2021-07-27 04:06:31,22.0752,-159.319,302.14,77,75,1.34
183,Natal,BR,2021-07-27 04:02:11,-5.795,-35.2094,295.83,88,1,3.18
184,Crawfordsville,US,2021-07-27 04:06:33,40.0411,-86.8745,297.2,84,0,3.05
185,Indiaroba,BR,2021-07-27 04:06:33,-11.5192,-37.5117,293.76,95,27,1.02
186,Atar,MR,2021-07-27 04:06:00,20.5169,-13.0499,302.69,32,2,0.17
187,Kattivakkam,IN,2021-07-27 04:06:35,13.2167,80.3167,305.2,54,97,7.41
188,Yabelo,ET,2021-07-27 04:06:36,4.8833,38.0833,286.2,69,82,3.69
189,Khatanga,RU,2021-07-27 04:03:02,71.9667,102.5,297.78,48,96,7.95
190,Clyde River,CA,2021-07-27 04:06:37,70.4692,-68.5914,274.28,100,75,3.6
191,Fortuna,US,2021-07-27 04:05:14,40.5982,-124.1573,286.44,92,90,3.09
192,Sainte-Maxime,FR,2021-07-27 04:06:39,43.3,6.6333,296.86,93,46,2.03
193,Souillac,MU,2021-07-27 04:06:40,-20.5167,57.5167,293.91,80,83,6.55
194,Sitka,US,2021-07-27 04:03:18,57.0531,-135.33,287.5,82,88,1.63
195,Pasighat,IN,2021-07-27 04:06:41,28.0667,95.3333,298.38,98,100,0.82
196,Dunedin,NZ,2021-07-27 04:06:42,-45.8742,170.5036,283.99,66,6,2.95
197,East London,ZA,2021-07-27 04:03:15,-33.0153,27.9116,289.67,31,0,2.57
198,Guerrero Negro,MX,2021-07-27 04:06:43,27.9769,-114.0611,293.46,81,0,6.42
199,Port Augusta,AU,2021-07-27 04:06:44,-32.5,137.7667,295.23,27,25,13.87
200,Lebyazhye,RU,2021-07-27 04:06:45,55.2689,66.4947,290.78,56,96,4.96
201,Noyabrsk,RU,2021-07-27 04:06:46,63.1994,75.4507,287.35,60,79,7.17
202,Machachi,EC,2021-07-27 04:06:46,-0.5,-78.5667,282.87,92,50,2.38
203,La Ronge,CA,2021-07-27 04:03:08,55.1001,-105.2842,290.54,54,58,2.32
204,Ukiah,US,2021-07-27 04:06:48,39.1502,-123.2078,296.13,40,1,3.09
205,Kamaishi,JP,2021-07-27 04:06:48,39.2667,141.8833,295.45,91,100,3.24
206,Khash,IR,2021-07-27 04:06:49,28.2211,61.2158,304.57,14,64,4.16
207,Naantali,FI,2021-07-27 04:06:50,60.4674,22.0243,293.77,68,0,2.06
208,Saint George,US,2021-07-27 04:06:51,37.1041,-113.5841,297.94,79,20,1.54
209,Nome,US,2021-07-27 04:04:43,64.5011,-165.4064,283.19,87,90,4.63
210,Bucerias,MX,2021-07-27 04:02:52,20.75,-105.3333,299.43,83,79,0.69
211,Yurla,RU,2021-07-27 04:06:53,59.3259,54.3223,284.54,82,55,4.74
212,Tiksi,RU,2021-07-27 04:03:03,71.6872,128.8694,276.34,87,85,4.56
213,Sur,OM,2021-07-27 04:06:54,22.5667,59.5289,307.69,47,47,6.04
214,Rognan,NO,2021-07-27 04:06:55,67.0953,15.3878,289.75,61,40,2.99
215,Missoula,US,2021-07-27 04:00:08,47.0166,-113.8009,295.68,44,90,0.6
216,Bardiyah,LY,2021-07-27 04:06:57,31.7561,25.0865,297.74,69,0,4.39
217,Gorokhovets,RU,2021-07-27 04:06:57,56.1947,42.7003,290.08,61,7,2.56
218,Alofi,NU,2021-07-27 04:03:43,-19.0595,-169.9187,297.79,76,33,2.04
219,Port Hardy,CA,2021-07-27 04:03:36,50.6996,-127.4199,287.48,83,84,4.05
220,Remedios,CU,2021-07-27 04:06:59,22.4947,-79.5458,296.66,87,47,1.04
221,Axim,GH,2021-07-27 04:03:31,4.8699,-2.2405,297.69,78,100,3.99
222,Chernyshevsk,RU,2021-07-27 04:07:01,52.5243,117.0174,295.91,68,25,3.54
223,Hasaki,JP,2021-07-27 04:07:01,35.7333,140.8333,301.09,80,21,10.61
224,Severo-Kurilsk,RU,2021-07-27 04:03:38,50.6789,156.125,289.61,88,84,4.26
225,Katakwi,UG,2021-07-27 04:07:03,1.8911,33.9661,291.58,70,99,0.93
226,Hirara,JP,2021-07-27 04:07:04,24.8,125.2833,301.58,84,100,2.53
227,Cabo San Lucas,MX,2021-07-27 04:02:09,22.8909,-109.9124,304.15,76,1,4.02
228,Mitsamiouli,KM,2021-07-27 04:07:05,-11.3847,43.2844,297.22,68,8,3.55
229,Portland,US,2021-07-27 04:04:36,45.5234,-122.6762,300.14,53,20,0.89
230,Luderitz,NA,2021-07-27 04:04:30,-26.6481,15.1594,288.31,63,0,3.17
231,Sechura,PE,2021-07-27 04:07:07,-5.5569,-80.8222,293.44,79,78,7.46
232,Takoradi,GH,2021-07-27 04:07:08,4.8845,-1.7554,297.39,81,100,4.38
233,San Quintin,MX,2021-07-27 04:07:08,30.4833,-115.95,292.99,84,1,3.86
234,Wattegama,LK,2021-07-27 04:07:09,6.7989,81.4808,301.66,46,91,4.15
235,Askino,RU,2021-07-27 04:07:10,56.0901,56.5783,289.01,65,74,4.77
236,Vila Velha,BR,2021-07-27 04:03:53,-20.3297,-40.2925,287.01,77,8,2.83
237,Pingzhuang,CN,2021-07-27 04:07:11,42.0372,119.2889,296.61,72,100,0.49
238,Nicoya,CR,2021-07-27 04:07:12,10.1483,-85.452,296.9,97,100,0.92
239,Roald,NO,2021-07-27 04:07:13,62.5833,6.1333,294.35,94,90,2.06
240,Waipawa,NZ,2021-07-27 04:07:14,-41.4122,175.5153,283.5,88,100,5.81
241,Faya,SA,2021-07-27 04:07:14,18.3851,42.4509,290.44,65,86,1.56
242,Karatuzskoye,RU,2021-07-27 04:07:15,53.6072,92.8667,296.46,70,85,2.15
243,Kampong Thum,KH,2021-07-27 04:06:32,12.7111,104.8887,305.66,55,18,5.2
244,Lebu,CL,2021-07-27 04:07:18,-37.6167,-73.65,280.37,79,60,7.84
245,Pokhara,NP,2021-07-27 04:03:02,28.2333,83.9833,299.38,83,90,1.52
246,Port Moresby,PG,2021-07-27 04:07:20,-9.4431,147.1797,299.97,80,70,8.29
247,Molokovo,RU,2021-07-27 04:07:20,58.1661,36.7628,291.93,60,14,1.25
248,Bambous Virieux,MU,2021-07-27 04:07:21,-20.3428,57.7575,293.83,78,73,6.52
249,Adre,TD,2021-07-27 04:07:22,13.4667,22.2,294.88,83,100,3.66
250,Marsh Harbour,BS,2021-07-27 04:05:29,26.5412,-77.0636,301.39,76,4,4.52
251,Shubarkuduk,KZ,2021-07-27 04:07:23,49.1447,56.4872,295.01,30,0,6.48
252,Kondopoga,RU,2021-07-27 04:07:24,62.2057,34.2614,288.97,88,63,2.11
253,Bara,NG,2021-07-27 04:05:31,10.3744,10.7288,295.21,96,100,1.71
254,Chitral,PK,2021-07-27 04:07:25,35.8462,71.7858,304.83,30,0,1.2
255,Weyburn,CA,2021-07-27 04:07:26,49.6668,-103.8511,293.25,49,0,4.45
256,Cabedelo,BR,2021-07-27 04:04:09,-6.9811,-34.8339,296.99,84,8,3.46
257,Kholodnyy,RU,2021-07-27 04:07:27,62.7167,147.95,286.07,81,100,0.34
258,Bloemfontein,ZA,2021-07-27 04:07:28,-29.1211,26.214,272.82,57,0,2.72
259,Laguna,US,2021-07-27 04:07:29,38.421,-121.4238,303.43,38,1,1.34
260,Oktyabrskoye,RU,2021-07-27 04:07:30,43.0645,44.7417,292.23,93,46,5.0
261,Palana,RU,2021-07-27 04:07:31,59.1167,159.9667,280.41,98,100,9.83
262,Aklavik,CA,2021-07-27 04:03:32,68.2191,-135.0107,285.35,85,100,1.54
263,Iwaki,JP,2021-07-27 04:05:02,37.05,140.8833,297.08,86,96,6.73
264,Chokurdakh,RU,2021-07-27 04:03:16,70.6333,147.9167,280.73,61,100,5.92
265,College,US,2021-07-27 04:05:13,64.8569,-147.8028,295.14,50,75,3.6
266,Mvuma,ZW,2021-07-27 04:07:34,-19.2792,30.5283,277.53,81,1,4.0
267,Nola,IT,2021-07-27 04:07:34,40.922,14.5329,300.89,58,56,0.63
268,Bay Roberts,CA,2021-07-27 04:07:35,47.5999,-53.2648,287.32,96,5,0.45
269,Sao Jose Da Coroa Grande,BR,2021-07-27 04:07:36,-8.8978,-35.1478,296.28,88,48,3.01
270,Xixiang,CN,2021-07-27 04:07:37,35.1628,112.865,304.5,67,22,2.66
271,Nsanje,MW,2021-07-27 04:07:38,-16.92,35.262,285.6,97,48,0.51
272,Usinsk,RU,2021-07-27 04:07:38,65.9939,57.5281,279.82,86,100,4.94
273,Iracoubo,GF,2021-07-27 04:07:39,5.4802,-53.2011,297.93,88,76,2.69
274,Cedar City,US,2021-07-27 04:07:40,37.6775,-113.0619,291.69,82,90,0.0
275,Grand Forks,US,2021-07-27 04:05:06,47.9417,-97.4337,297.0,49,1,3.6
276,Adrar,MR,2021-07-27 04:04:09,20.5022,-10.0711,303.7,29,56,6.77
277,Dublin,US,2021-07-27 04:07:42,37.7021,-121.9358,295.75,68,1,0.89
278,Cruzeiro Do Sul,BR,2021-07-27 04:07:44,-29.5128,-51.9853,292.32,95,100,1.16
279,Rebrikha,RU,2021-07-27 04:07:44,53.0733,82.3408,292.28,49,0,3.92
280,Borgarnes,IS,2021-07-27 04:07:45,64.5383,-21.9206,283.51,85,100,3.74
281,Elko,US,2021-07-27 04:07:47,41.0002,-115.5012,301.38,11,29,2.24
282,Ifakara,TZ,2021-07-27 04:07:47,-8.1333,36.6833,288.43,66,3,1.84
283,Ishigaki,JP,2021-07-27 04:07:48,24.3448,124.1572,301.89,85,100,3.85
284,Melilla,ES,2021-07-27 04:07:49,35.2937,-2.9383,293.36,88,0,1.03
285,Remanso,BR,2021-07-27 04:07:50,-9.6179,-42.0831,295.74,68,36,4.48
286,Auki,SB,2021-07-27 04:03:31,-8.7676,160.7034,302.1,67,99,1.02
287,Lancaster,US,2021-07-27 04:00:55,40.2504,-76.2499,297.75,79,95,0.93
288,Cuddapah,IN,2021-07-27 04:07:52,14.4667,78.8167,303.67,52,92,8.5
289,Dingle,PH,2021-07-27 04:07:52,10.9995,122.6711,304.78,61,59,8.11
290,Lata,PT,2021-07-27 04:06:06,40.1629,-8.3327,290.33,97,62,0.91
291,Poum,NC,2021-07-27 04:07:54,-20.2333,164.0167,295.54,62,41,3.36
292,Pangani,TZ,2021-07-27 04:07:54,-5.4333,38.9667,292.32,78,5,4.09
293,Linxia,CN,2021-07-27 04:07:55,35.6003,103.2064,297.7,37,54,1.83
294,Wanning,CN,2021-07-27 04:07:56,18.8003,110.3967,307.17,58,51,2.79
295,Bengkulu,ID,2021-07-27 04:07:57,-3.8004,102.2655,302.58,56,13,1.51
296,Necochea,AR,2021-07-27 04:07:58,-38.5473,-58.7368,275.95,70,95,9.18
297,Katsuura,JP,2021-07-27 04:07:58,35.1333,140.3,299.88,76,87,7.4
298,Kawalu,ID,2021-07-27 04:07:59,-7.3817,108.2082,302.94,48,29,2.56
299,Saskylakh,RU,2021-07-27 04:08:00,71.9167,114.0833,290.11,55,99,4.13
300,Ous,RU,2021-07-27 04:08:01,60.9058,61.5186,285.0,95,100,2.64
301,Eyl,SO,2021-07-27 04:08:01,7.9803,49.8164,300.01,53,55,9.79
302,Palmer,US,2021-07-27 04:03:11,42.1584,-72.3287,294.93,84,1,2.06
303,Berlevag,NO,2021-07-27 04:05:03,70.8578,29.0864,280.15,79,40,2.21
304,Walvis Bay,NA,2021-07-27 04:08:03,-22.9575,14.5053,292.89,31,0,5.74
305,Upington,ZA,2021-07-27 04:08:04,-28.4478,21.2561,281.92,40,0,5.86
306,Tecoanapa,MX,2021-07-27 04:08:06,16.5167,-98.75,300.09,82,100,1.72
307,Okhotsk,RU,2021-07-27 04:08:06,59.3833,143.3,294.15,72,20,4.34
308,Kampene,CD,2021-07-27 04:08:07,-3.6,26.6667,290.81,55,30,0.96
309,Apiai,BR,2021-07-27 04:08:08,-24.5094,-48.8425,286.57,63,31,1.67
310,Santiago,CL,2021-07-27 04:00:04,-33.4569,-70.6483,283.07,62,0,0.94
311,Hami,CN,2021-07-27 04:08:09,42.8,93.45,307.08,15,0,3.29
312,Erzin,TR,2021-07-27 04:08:10,36.9559,36.2,300.55,72,0,0.83
313,Pervomayskiy,RU,2021-07-27 04:08:11,53.2485,40.2871,292.14,61,67,1.64
314,Kamina,CD,2021-07-27 04:08:12,-8.7386,24.9906,283.64,54,97,2.15
315,Biggar,GB,2021-07-27 04:08:12,55.6167,-3.5167,287.2,97,72,1.12
316,Saint-Augustin,CA,2021-07-27 04:04:12,51.226,-58.6502,287.62,95,100,4.75
317,Marsabit,KE,2021-07-27 04:08:14,2.3284,37.9899,287.72,72,95,5.88
318,Kyzyl-Suu,KG,2021-07-27 04:08:15,42.3414,78.0056,298.69,27,3,2.6
319,Progreso,MX,2021-07-27 04:08:16,21.2833,-89.6667,298.21,87,5,2.62
320,Shingu,JP,2021-07-27 04:08:17,33.7333,135.9833,302.54,58,79,2.14
321,Torbay,CA,2021-07-27 04:03:21,47.6666,-52.7314,286.9,94,0,4.61
322,Leningradskiy,RU,2021-07-27 04:08:18,69.3833,178.4167,277.77,84,90,4.1
323,Katherine,AU,2021-07-27 04:08:19,-14.4667,132.2667,304.33,30,34,2.57
324,Iqaluit,CA,2021-07-27 04:08:19,63.7506,-68.5145,281.87,87,98,0.89
325,Ketchikan,US,2021-07-27 04:05:29,55.3422,-131.6461,286.41,94,90,3.6
326,Berck,FR,2021-07-27 04:08:21,50.4,1.6,290.66,100,90,4.63
327,Coihaique,CL,2021-07-27 04:06:20,-45.5752,-72.0662,275.12,80,0,1.03
328,Nanortalik,GL,2021-07-27 04:08:22,60.1432,-45.2371,281.22,77,75,4.12
329,Varna,BG,2021-07-27 04:08:23,43.2167,27.9167,295.5,82,0,0.51
330,Grand Gaube,MU,2021-07-27 04:08:24,-20.0064,57.6608,293.92,85,79,1.34
331,Malyye Derbety,RU,2021-07-27 04:08:24,47.9547,44.6808,298.45,31,44,3.77
332,Lasa,IT,2021-07-27 04:08:25,46.6166,10.7002,289.27,95,100,0.89
333,Papara,BR,2021-07-27 04:08:26,-3.9839,-38.7273,299.37,95,0,1.84
334,Husavik,IS,2021-07-27 04:03:58,66.0449,-17.3389,283.29,80,94,1.12
335,Rio Gallegos,AR,2021-07-27 04:05:20,-51.6226,-69.2181,276.18,87,75,3.6
336,Kostomuksha,RU,2021-07-27 04:08:29,64.571,30.5767,288.36,65,91,1.33
337,Lagunas,PE,2021-07-27 04:08:29,-5.2269,-75.6753,296.69,88,79,1.05
338,Constitucion,CL,2021-07-27 04:05:56,-35.3333,-72.4167,280.12,68,0,5.48
339,San Cristobal,VE,2021-07-27 04:08:31,7.7669,-72.225,291.52,97,90,1.1
340,Hereford,GB,2021-07-27 04:08:31,52.0568,-2.7148,290.96,68,100,1.51
341,Rosita,NI,2021-07-27 04:08:32,13.9268,-84.4032,296.16,98,89,0.6
342,Kirakira,SB,2021-07-27 04:08:33,-10.4544,161.9205,301.85,73,34,4.7
343,Chernyshevskiy,RU,2021-07-27 04:08:34,63.0128,112.4714,303.9,29,7,1.74
344,Nemuro,JP,2021-07-27 04:08:35,43.3236,145.575,289.24,99,100,3.91
345,Lithakia,GR,2021-07-27 04:08:21,37.7167,20.8333,297.75,61,0,2.06
346,New Iberia,US,2021-07-27 04:08:36,30.0035,-91.8187,302.19,78,40,3.09
347,Sao Filipe,CV,2021-07-27 04:03:51,14.8961,-24.4956,296.83,86,29,3.76
348,Yelatma,RU,2021-07-27 04:08:37,54.9675,41.7508,293.59,55,60,1.55
349,Casablanca,MA,2021-07-27 04:05:23,33.5928,-7.6192,293.57,87,34,3.98
350,Altay,CN,2021-07-27 04:08:39,47.8667,88.1167,301.81,29,0,2.73
351,Hay River,CA,2021-07-27 04:08:39,60.8156,-115.7999,289.13,88,75,3.09
352,Mattru,SL,2021-07-27 04:08:40,7.6244,-11.8332,296.02,96,100,1.69
353,Nossa Senhora Da Gloria,BR,2021-07-27 04:08:41,-10.2183,-37.4203,291.63,96,17,1.87
354,San Nicolas,PH,2021-07-27 04:08:42,18.1725,120.5953,301.81,85,100,10.28
355,Burnie,AU,2021-07-27 04:04:05,-41.0667,145.9167,286.99,81,85,6.19
356,Kloulklubed,PW,2021-07-27 04:08:43,7.0419,134.2556,301.43,78,100,7.98
357,Nioro,GM,2021-07-27 04:08:44,13.35,-15.75,297.51,88,33,2.2
358,Teguise,ES,2021-07-27 04:08:45,29.0605,-13.564,293.27,78,90,7.2
359,Andover,GB,2021-07-27 04:08:46,51.2083,-1.4825,291.2,93,100,2.68
360,Galle,LK,2021-07-27 04:08:46,6.0367,80.217,300.92,80,89,6.24
361,Moron,AR,2021-07-27 04:05:29,-34.6534,-58.6198,282.02,54,45,2.68
362,La Sarre,CA,2021-07-27 04:08:48,48.8002,-79.1996,285.42,71,83,2.48
363,Guayaramerin,BO,2021-07-27 04:08:49,-10.8368,-65.3614,297.37,59,2,1.13
364,Dores Do Indaia,BR,2021-07-27 04:08:49,-19.4633,-45.6017,286.9,49,0,0.59
365,Dalbandin,PK,2021-07-27 04:08:50,28.8947,64.4101,310.26,12,100,3.18
366,Pita,GN,2021-07-27 04:08:51,10.8333,-12.5833,295.2,99,98,0.54
367,Zhangye,CN,2021-07-27 04:08:52,38.9342,100.4517,302.71,18,100,0.53
368,Nikolskoye,RU,2021-07-27 04:05:09,59.7035,30.7861,293.6,62,8,1.45
369,Fort Nelson,CA,2021-07-27 04:08:54,58.8053,-122.7002,286.27,88,94,2.13
370,Asau,RO,2021-07-27 04:08:54,46.4333,26.4,294.68,75,77,1.94
371,Maraba,BR,2021-07-27 04:08:55,-5.3686,-49.1178,294.25,100,13,0.0
372,Andenes,NO,2021-07-27 04:08:56,69.3143,16.1194,288.41,100,90,1.54
373,Bayshore Gardens,US,2021-07-27 04:05:42,27.4253,-82.5904,302.58,77,20,2.06
374,Mumford,GH,2021-07-27 04:08:57,5.2618,-0.759,297.42,76,99,4.91
375,Lubango,AO,2021-07-27 04:08:58,-14.9172,13.4925,284.08,43,13,1.58
376,Beloha,MG,2021-07-27 04:08:59,-25.1667,45.05,289.23,67,45,5.8
377,Abu Zabad,SD,2021-07-27 04:09:00,12.35,29.25,295.17,87,99,4.14
378,Cervo,ES,2021-07-27 04:09:00,43.6702,-7.4101,290.91,86,5,2.89
379,Tarancon,ES,2021-07-27 04:09:01,40.0085,-3.0073,293.34,80,0,4.91
380,Ugoofaaru,MV,2021-07-27 04:09:03,5.6667,73.0,300.87,77,95,7.09
381,Limoges,FR,2021-07-27 04:09:03,45.75,1.3333,288.46,88,0,1.54
382,Omsukchan,RU,2021-07-27 04:09:04,62.5333,155.8,284.09,81,100,2.15
383,Deputatskiy,RU,2021-07-27 04:09:05,69.3,139.9,284.3,53,95,3.09
384,Concarneau,FR,2021-07-27 04:09:06,47.875,-3.9225,291.51,94,100,3.55
385,Kjollefjord,NO,2021-07-27 04:09:07,70.9457,27.3465,283.18,93,0,1.54
386,Mundo Nuevo,MX,2021-07-27 04:09:08,18.7,-95.5,300.54,78,6,3.52
387,Cockburn Town,TC,2021-07-27 04:08:14,21.4612,-71.1419,301.08,85,25,6.94
388,Kargil,IN,2021-07-27 04:09:09,34.5667,76.1,295.34,36,7,1.32
389,Kitob,UZ,2021-07-27 04:09:10,39.0843,66.8332,302.47,21,0,4.63
390,Zdvinsk,RU,2021-07-27 04:09:11,54.7021,78.661,290.42,52,0,4.13
391,San Borja,BO,2021-07-27 04:07:07,-14.8167,-66.85,295.68,66,0,1.05
392,San Juan,AR,2021-07-27 04:09:13,-31.5375,-68.5364,281.56,51,0,4.77
393,Abu Kamal,SY,2021-07-27 04:09:14,34.4506,40.9171,305.61,28,0,7.44
394,Puerto Ayacucho,VE,2021-07-27 04:09:14,5.6639,-67.6236,295.79,94,98,1.0
395,Mandera,KE,2021-07-27 04:09:15,3.9366,41.867,296.39,66,85,7.57
396,Taltal,CL,2021-07-27 04:04:46,-25.4,-70.4833,286.76,75,0,1.12
397,Correntina,BR,2021-07-27 04:09:16,-13.3433,-44.6367,292.08,46,26,1.37
398,Tromso,NO,2021-07-27 04:09:17,69.6496,18.957,283.51,100,90,1.54
399,Lazaro Cardenas,MX,2021-07-27 04:09:18,17.9583,-102.2,300.39,83,65,0.53
400,Lilongwe,MW,2021-07-27 04:09:19,-13.9669,33.7873,284.84,74,57,3.52
401,Utkivka,UA,2021-07-27 04:09:20,49.7858,36.0753,295.49,48,20,2.61
402,Beyneu,KZ,2021-07-27 04:09:20,45.3167,55.2,300.42,19,3,6.86
403,Beringovskiy,RU,2021-07-27 04:09:21,63.05,179.3167,283.71,92,100,3.38
404,Huarmey,PE,2021-07-27 04:09:22,-10.0681,-78.1522,291.37,88,49,3.95
405,Mpika,ZM,2021-07-27 04:09:24,-11.8343,31.4529,278.84,92,73,2.45
406,San Isidro,PE,2021-07-27 04:09:25,-12.1167,-77.05,289.96,92,90,0.45
407,Vila,PT,2021-07-27 04:09:26,42.0304,-8.1588,286.34,92,17,1.19
408,Evensk,RU,2021-07-27 04:05:11,61.95,159.2333,290.14,63,93,3.55
409,Cruz Das Almas,BR,2021-07-27 04:09:27,-12.67,-39.1019,291.05,98,10,1.28
410,Northam,GB,2021-07-27 04:09:28,51.0333,-4.2167,290.03,97,100,4.57
411,Dudinka,RU,2021-07-27 04:06:18,69.4058,86.1778,301.37,45,89,8.18
412,Espanola,US,2021-07-27 04:09:29,35.9911,-106.0806,296.14,67,98,0.59
413,Mahasamund,IN,2021-07-27 04:09:30,21.1,82.1,299.55,81,100,6.95
414,Saint-Pierre,RE,2021-07-27 04:09:31,-21.3393,55.4781,291.97,75,75,3.09
415,Bubaque,GW,2021-07-27 04:09:32,11.2833,-15.8333,299.51,84,93,4.48
416,Port Said,EG,2021-07-27 04:09:33,31.2565,32.2841,300.14,78,20,3.6
417,Moerai,PF,2021-07-27 04:09:33,-22.4333,-151.3333,297.25,81,96,7.4
418,Goderich,CA,2021-07-27 04:09:34,43.7501,-81.7165,292.54,67,45,2.03
419,Lyuban,BY,2021-07-27 04:09:35,52.7985,28.0048,291.48,86,47,3.84
420,Cabra,ES,2021-07-27 04:09:36,37.4725,-4.4421,294.76,69,1,1.82
421,Bandar-E Lengeh,IR,2021-07-27 04:09:36,26.5579,54.8807,307.46,64,58,1.39
422,Quatre Cocos,MU,2021-07-27 04:09:37,-20.2078,57.7625,293.76,77,73,6.18
423,Hit,IQ,2021-07-27 04:09:38,33.6416,42.8251,309.82,19,6,5.53
424,Cidreira,BR,2021-07-27 04:04:55,-30.1811,-50.2056,289.68,98,100,3.71
425,Aksarka,RU,2021-07-27 04:09:39,66.5606,67.7975,283.8,87,91,2.96
426,Lorengau,PG,2021-07-27 04:09:40,-2.0226,147.2712,302.09,72,77,1.48
427,Rio Brilhante,BR,2021-07-27 04:09:41,-21.8019,-54.5464,295.83,43,4,2.83
428,Taonan,CN,2021-07-27 04:09:42,45.3333,122.7833,301.31,64,99,3.24
429,Changji,CN,2021-07-27 04:05:48,44.0167,87.3167,309.59,13,0,4.0
430,Arys,KZ,2021-07-27 04:09:43,42.4252,68.795,304.27,23,0,11.46
431,Caiaponia,BR,2021-07-27 04:09:44,-16.9567,-51.8103,290.0,44,1,0.78
432,Galveston,US,2021-07-27 04:05:53,29.3669,-94.9669,303.79,84,1,2.57
433,Raudeberg,NO,2021-07-27 04:09:46,61.9875,5.1352,292.93,90,100,5.29
434,Kangaatsiaq,GL,2021-07-27 04:06:13,68.3065,-53.4641,281.52,90,99,3.38
435,Sorland,NO,2021-07-27 04:09:47,67.667,12.6934,285.28,94,30,6.05
436,Ajaccio,FR,2021-07-27 04:09:48,42.0,8.9167,295.14,65,89,2.06
437,Kapoeta,SS,2021-07-27 04:09:48,4.7717,33.5903,294.93,65,89,1.49
438,Linares,CL,2021-07-27 04:08:22,-35.85,-71.6,276.1,88,0,2.64
439,Tual,ID,2021-07-27 04:09:50,-5.6667,132.75,300.72,77,62,7.72
440,Viking,CA,2021-07-27 04:09:51,53.1001,-111.7684,291.21,65,8,3.03
441,Trincomalee,LK,2021-07-27 04:09:51,8.5711,81.2335,303.46,65,89,8.28
442,Naron,ES,2021-07-27 04:09:52,43.5167,-8.1528,291.49,94,32,1.96
443,Emerald,AU,2021-07-27 04:09:53,-23.5333,148.1667,296.67,31,0,4.72
444,Krasnoselkup,RU,2021-07-27 04:09:54,65.7,82.4667,284.56,97,100,5.36
445,Te Anau,NZ,2021-07-27 04:06:52,-45.4167,167.7167,281.82,73,34,2.52
446,Botwood,CA,2021-07-27 04:09:55,49.1499,-55.3482,289.21,94,29,3.85
447,Turbat,PK,2021-07-27 04:09:56,26.0023,63.044,302.54,73,71,3.35
448,Along,IN,2021-07-27 04:09:57,28.1667,94.7667,297.93,98,100,0.41
449,Pacific Grove,US,2021-07-27 04:09:57,36.6177,-121.9166,292.37,88,90,0.45
450,Angoche,MZ,2021-07-27 04:09:59,-16.2325,39.9086,291.5,81,1,4.44
451,Neiafu,TO,2021-07-27 04:10:00,-18.65,-173.9833,299.53,78,75,1.03
452,Manbij,SY,2021-07-27 04:10:00,36.5281,37.9549,301.58,46,0,5.58
453,Muli,MV,2021-07-27 04:10:01,2.9167,73.5667,301.02,74,99,4.63
454,Victor Harbor,AU,2021-07-27 04:10:05,-35.5667,138.6167,292.3,44,45,2.24
455,Mihail Kogalniceanu,RO,2021-07-27 04:10:06,44.3667,28.45,294.42,68,0,3.09
456,Shelburne,CA,2021-07-27 04:10:07,44.0787,-80.2041,292.35,61,0,2.4
457,Raigarh,IN,2021-07-27 04:08:15,21.9,83.4,299.23,75,100,5.45
458,Oranjemund,NA,2021-07-27 04:10:08,-28.55,16.4333,287.8,56,0,3.34
459,Dandong,CN,2021-07-27 04:10:09,40.1292,124.3947,305.38,57,11,1.35
460,Xining,CN,2021-07-27 04:10:10,36.6167,101.7667,291.41,63,95,3.49
461,Zhezkazgan,KZ,2021-07-27 04:10:11,47.8043,67.7144,295.26,28,0,4.8
462,Dossor,KZ,2021-07-27 04:10:12,47.5272,52.9811,298.52,21,4,4.18
463,Sampang,ID,2021-07-27 04:10:13,-7.1872,113.2394,305.12,58,4,1.93
464,San Vicente,AR,2021-07-27 04:10:13,-26.6167,-54.1333,288.91,97,100,1.82
465,San Carlos De Bariloche,AR,2021-07-27 04:09:19,-41.1456,-71.3082,275.01,69,0,6.17
466,Pringsewu,ID,2021-07-27 04:10:15,-5.3582,104.9744,304.09,44,15,2.26
467,Tambopata,PE,2021-07-27 04:10:16,-12.7333,-69.1833,296.48,67,20,1.18
468,Aquiraz,BR,2021-07-27 04:10:16,-3.9014,-38.3911,300.2,83,1,5.38
469,Mareeba,AU,2021-07-27 04:10:18,-17.0,145.4333,298.95,62,68,3.05
470,Durban,ZA,2021-07-27 04:10:18,-29.8579,31.0292,285.38,72,12,2.68
471,Cairns,AU,2021-07-27 04:10:19,-16.9167,145.7667,301.52,57,75,4.12
472,Guadalupe Y Calvo,MX,2021-07-27 04:10:20,26.1,-106.9667,285.55,93,98,0.54
473,Bilgoraj,PL,2021-07-27 04:10:21,50.5411,22.722,293.18,91,72,2.41
474,Talaya,RU,2021-07-27 04:06:02,61.3833,152.75,289.34,53,81,5.01
475,Bat Khela,PK,2021-07-27 04:10:22,34.6167,71.9714,305.47,60,76,2.05
476,Zheleznodorozhnyy,RU,2021-07-27 04:10:23,55.7503,38.0042,295.02,55,0,0.32
477,Ano Mera,GR,2021-07-27 04:10:24,37.45,25.4,298.29,60,0,9.77
478,Koumac,NC,2021-07-27 04:10:24,-20.5667,164.2833,296.32,57,42,5.32
479,Nguruka,TZ,2021-07-27 04:10:16,-5.1092,31.0419,287.32,48,64,3.65
480,Xuddur,SO,2021-07-27 04:10:26,4.1213,43.8894,293.98,78,64,9.22
481,Tabas,IR,2021-07-27 04:10:28,33.5959,56.9244,307.15,21,0,6.44
482,Sabha,LY,2021-07-27 04:10:28,27.0377,14.4283,299.44,27,14,5.89
483,Tutoia,BR,2021-07-27 04:10:29,-2.7619,-42.2744,298.18,88,46,4.33
484,Kichha,IN,2021-07-27 04:10:30,28.9167,79.5,304.48,68,87,2.16
485,Vrede,ZA,2021-07-27 04:08:02,-27.4257,29.1659,273.51,52,0,1.34
486,Lodja,CD,2021-07-27 04:10:33,-3.4833,23.4333,290.2,45,79,1.17
487,Lavrentiya,RU,2021-07-27 04:10:33,65.5833,-171.0,280.3,99,100,1.95
488,Neuquen,AR,2021-07-27 04:09:08,-38.9516,-68.0591,279.33,47,5,6.8
489,Muromtsevo,RU,2021-07-27 04:10:35,56.3724,75.2418,290.67,44,57,4.38
490,Galeana,MX,2021-07-27 04:10:36,24.8333,-100.0667,290.19,74,6,1.09
491,Znamenskoye,RU,2021-07-27 04:10:36,57.1281,73.8282,288.46,65,70,2.98
492,Luwuk,ID,2021-07-27 04:10:37,-0.9516,122.7875,302.25,61,70,3.91
493,Vilyuysk,RU,2021-07-27 04:10:38,63.7553,121.6247,299.79,38,6,3.75
494,Susanville,US,2021-07-27 04:10:39,40.4163,-120.653,300.06,21,90,5.66
495,Christchurch,NZ,2021-07-27 04:07:49,-43.5333,172.6333,285.93,60,67,0.89
496,Wairoa,NZ,2021-07-27 04:10:40,-39.0333,177.3667,287.34,60,100,0.89
497,Araouane,ML,2021-07-27 04:10:41,18.9048,-3.5265,304.65,51,100,9.11
498,Kez,RU,2021-07-27 04:10:42,57.8979,53.7152,287.03,90,88,3.29
499,Amol,IR,2021-07-27 04:10:42,36.4696,52.3507,301.44,66,4,0.55
500,Bairnsdale,AU,2021-07-27 04:08:59,-37.8333,147.6167,293.19,40,11,1.34
501,Nishihara,JP,2021-07-27 04:10:44,26.1842,127.7558,303.96,79,75,7.72
502,Wittstock,DE,2021-07-27 04:10:45,53.1612,12.4829,292.33,93,86,2.62
503,Cumaral,CO,2021-07-27 04:10:45,4.2708,-73.4867,294.61,98,100,0.58
504,Shache,CN,2021-07-27 04:10:46,38.4167,77.2406,308.94,14,98,0.62
505,Bonavista,CA,2021-07-27 04:10:47,48.6499,-53.1147,286.55,93,1,5.54
506,Mackay,AU,2021-07-27 04:09:12,-21.15,149.2,297.42,65,7,4.08
507,Bilibino,RU,2021-07-27 04:10:48,68.0546,166.4372,286.17,45,75,7.71
508,Najran,SA,2021-07-27 04:10:49,17.4924,44.1277,302.22,34,60,2.67
509,Praia Da Vitoria,PT,2021-07-27 04:10:50,38.7333,-27.0667,296.35,86,94,5.0
510,Amapa,BR,2021-07-27 04:10:51,1.0,-52.0,294.13,98,65,0.75
511,Lamas,PE,2021-07-27 04:10:51,-6.4167,-76.5333,291.12,94,2,1.43
512,Mercedes,AR,2021-07-27 04:10:52,-34.6515,-59.4307,280.85,47,4,5.38
513,Lucapa,AO,2021-07-27 04:10:53,-8.4192,20.7447,286.28,38,95,1.72
514,Maceio,BR,2021-07-27 04:10:54,-9.6658,-35.7353,294.84,100,75,1.54
515,Ryotsu,JP,2021-07-27 04:10:55,38.0833,138.4333,297.13,89,100,2.85
516,Tsiroanomandidy,MG,2021-07-27 04:10:55,-18.7667,46.0333,287.32,77,81,0.86
517,Chauk,MM,2021-07-27 04:10:56,20.8833,94.8167,301.55,75,86,9.06
518,Davila,PH,2021-07-27 04:10:57,18.4726,120.5763,301.63,86,100,11.85
519,Skibbereen,IE,2021-07-27 04:10:58,51.55,-9.2667,287.04,86,31,5.33
520,Rocha,UY,2021-07-27 04:10:58,-34.4833,-54.3333,278.99,92,8,2.82
521,Slave Lake,CA,2021-07-27 04:10:59,55.2834,-114.769,291.14,63,1,2.06
522,San Pedro,PH,2021-07-27 04:11:00,14.35,121.0167,304.44,70,78,9.9
523,Khasan,RU,2021-07-27 04:11:01,42.4308,130.6434,300.59,70,16,3.88
524,Richards Bay,ZA,2021-07-27 04:06:05,-28.783,32.0377,288.47,62,16,6.72
525,Buala,SB,2021-07-27 04:11:03,-8.145,159.5921,299.74,81,98,1.78
526,Brest,BY,2021-07-27 04:11:03,52.1,23.7,291.98,91,4,1.83
527,Anchorage,US,2021-07-27 04:08:34,61.2181,-149.9003,293.56,67,1,2.57
528,Yeppoon,AU,2021-07-27 04:11:05,-23.1333,150.7333,297.03,69,10,4.37
529,Half Moon Bay,US,2021-07-27 04:11:06,37.4636,-122.4286,295.11,81,1,0.89
530,Waingapu,ID,2021-07-27 04:11:06,-9.6567,120.2641,303.2,55,40,6.43
531,Gizo,SB,2021-07-27 04:11:07,-8.103,156.8419,301.74,74,24,2.8
532,Solvychegodsk,RU,2021-07-27 04:11:08,61.3305,46.9156,282.25,85,16,3.36
533,Avera,US,2021-07-27 04:11:09,33.194,-82.5271,299.1,74,47,2.31
534,Sachin,IN,2021-07-27 04:11:09,21.0833,72.8833,301.09,83,75,7.2
535,Alice Springs,AU,2021-07-27 04:07:06,-23.7,133.8833,300.9,13,55,8.75
536,Cozumel,MX,2021-07-27 04:09:52,20.5083,-86.9458,301.14,77,0,3.91
537,Mian Channun,PK,2021-07-27 04:11:11,30.44,72.3543,310.17,41,61,7.32
538,Linkou,CN,2021-07-27 04:11:12,45.3,130.2833,309.45,35,94,3.2
539,Mayya,RU,2021-07-27 04:11:13,61.7333,130.2811,302.77,24,9,5.25
540,Yar-Sale,RU,2021-07-27 04:11:14,66.8333,70.8333,286.61,54,69,3.3
541,Mandalgovi,MN,2021-07-27 04:11:15,45.7625,106.2708,295.65,39,60,3.12
542,Ransang,PH,2021-07-27 04:11:16,8.9603,117.5828,304.51,63,58,7.44
543,Karratha,AU,2021-07-27 04:11:17,-20.7377,116.8463,299.22,54,93,5.76
544,Soe,ID,2021-07-27 04:11:17,-9.8607,124.284,301.85,28,56,4.5
545,Ust-Uda,RU,2021-07-27 04:11:18,54.1742,103.0304,300.99,34,13,4.84
546,Prince Rupert,CA,2021-07-27 04:11:19,54.3161,-130.3201,286.2,94,90,2.06
547,Komsomolskiy,UZ,2021-07-27 04:11:20,40.4272,71.7189,306.55,22,0,8.23
548,Rawson,AR,2021-07-27 04:11:21,-43.3002,-65.1023,277.64,88,89,12.75
549,Hede,CN,2021-07-27 04:11:22,33.7681,120.2517,298.92,93,100,11.0
550,Puerto Baquerizo Moreno,EC,2021-07-27 04:11:23,-0.9,-89.6,294.59,77,59,4.89
551,Kodinsk,RU,2021-07-27 04:11:23,58.6881,99.1844,303.64,31,2,3.3
552,Kyaikto,MM,2021-07-27 04:11:24,17.3,97.0167,299.21,88,100,1.36
